{"totalFeatures":30,"features":[{"geometry":{"coordinates":["126.5925","43.84237"],"type":"Point"},"id":"B01B00PQ8L","geometry_name":"geom","type":"Feature","properties":{"id":"B01B00PQ8L","lng":"126.5925","lat":"43.84237","name":"东滩花园B","address":"江湾路朝鲜族中学东侧","city":"吉林市","adcode":"220202"}},{"geometry":{"coordinates":["126.549254","43.824291"],"type":"Point"},"id":"B0FFGFGLX4","geometry_name":"geom","type":"Feature","properties":{"id":"B0FFGFGLX4","lng":"126.549254","lat":"43.824291","name":"烽火B区","address":"峰火街13号附近","city":"吉林市","adcode":"220211"}},{"geometry":{"coordinates":["126.567948","43.849556"],"type":"Point"},"id":"B0FFFDTC2F","geometry_name":"geom","type":"Feature","properties":{"id":"B0FFFDTC2F","lng":"126.567948","lat":"43.849556","name":"U/2/B","address":"重庆路1188号国贸购物中心1层","city":"吉林市","adcode":"220202"}},{"geometry":{"coordinates":["126.58906","43.850425"],"type":"Point"},"id":"B0FFG2E8AX","geometry_name":"geom","type":"Feature","properties":{"id":"B0FFG2E8AX","lng":"126.58906","lat":"43.850425","name":"U/2/B","address":"解放东路6号欧亚商都解放大路店1层","city":"吉林市","adcode":"220202"}},{"geometry":{"coordinates":["126.557426","43.844199"],"type":"Point"},"id":"B0FFFPSWUP","geometry_name":"geom","type":"Feature","properties":{"id":"B0FFFPSWUP","lng":"126.557426","lat":"43.844199","name":"AB内衣(河南街)","address":"河南街8-9购物广场西门外","city":"吉林市","adcode":"220204"}},{"geometry":{"coordinates":["126.54971","43.82527"],"type":"Point"},"id":"B0FFFXXQ07","geometry_name":"geom","type":"Feature","properties":{"id":"B0FFFXXQ07","lng":"126.54971","lat":"43.82527","name":"烽火B2区","address":"峰火街39号附近","city":"吉林市","adcode":"220211"}},{"geometry":{"coordinates":["126.548764","43.824877"],"type":"Point"},"id":"B0FFFZ21H2","geometry_name":"geom","type":"Feature","properties":{"id":"B0FFFZ21H2","lng":"126.548764","lat":"43.824877","name":"烽火B1区","address":"丰满一实验附近","city":"吉林市","adcode":"220211"}},{"geometry":{"coordinates":["126.570591","43.85556"],"type":"Point"},"id":"B0FFF4J8EQ","geometry_name":"geom","type":"Feature","properties":{"id":"B0FFF4J8EQ","lng":"126.570591","lat":"43.85556","name":"AB内衣(建设街)","address":"建设街与重庆街交叉口东北50米","city":"吉林市","adcode":"220202"}},{"geometry":{"coordinates":["126.558887","43.808019"],"type":"Point"},"id":"B0FFF7JFMI","geometry_name":"geom","type":"Feature","properties":{"id":"B0FFF7JFMI","lng":"126.558887","lat":"43.808019","name":"深圳花园B座","address":"丰满区","city":"吉林市","adcode":"220211"}},{"geometry":{"coordinates":["126.568927","43.851342"],"type":"Point"},"id":"B01B0027DK","geometry_name":"geom","type":"Feature","properties":{"id":"B01B0027DK","lng":"126.568927","lat":"43.851342","name":"东市商场B座","address":"长沙路288号","city":"吉林市","adcode":"220202"}},{"geometry":{"coordinates":["126.56768","43.860373"],"type":"Point"},"id":"B01B002ALQ","geometry_name":"geom","type":"Feature","properties":{"id":"B01B002ALQ","lng":"126.56768","lat":"43.860373","name":"新东广场B座","address":"中康路与吉林大街交汇处","city":"吉林市","adcode":"220202"}},{"geometry":{"coordinates":["126.56571","43.84269"],"type":"Point"},"id":"B0FFG6DHP9","geometry_name":"geom","type":"Feature","properties":{"id":"B0FFG6DHP9","lng":"126.56571","lat":"43.84269","name":"八一大厦B座","address":"吉林大街128-4号","city":"吉林市","adcode":"220204"}},{"geometry":{"coordinates":["126.545228","43.842455"],"type":"Point"},"id":"B0FFFPQCXA","geometry_name":"geom","type":"Feature","properties":{"id":"B0FFFPQCXA","lng":"126.545228","lat":"43.842455","name":"银龙大厦B座","address":"解放中路119-15号","city":"吉林市","adcode":"220204"}},{"geometry":{"coordinates":["126.560779","43.819673"],"type":"Point"},"id":"B01B00R85J","geometry_name":"geom","type":"Feature","properties":{"id":"B01B00R85J","lng":"126.560779","lat":"43.819673","name":"龙润大厦B座","address":"恒山西路6-8号","city":"吉林市","adcode":"220211"}},{"geometry":{"coordinates":["126.578275","43.825824"],"type":"Point"},"id":"B0FFF0NSRE","geometry_name":"geom","type":"Feature","properties":{"id":"B0FFF0NSRE","lng":"126.578275","lat":"43.825824","name":"朝阳花园B11号","address":"丰满区","city":"吉林市","adcode":"220211"}},{"geometry":{"coordinates":["126.565423","43.821804"],"type":"Point"},"id":"B0FFF9CXM0","geometry_name":"geom","type":"Feature","properties":{"id":"B0FFF9CXM0","lng":"126.565423","lat":"43.821804","name":"江山小区1号B","address":"丰满区","city":"吉林市","adcode":"220211"}},{"geometry":{"coordinates":["126.54678","43.822545"],"type":"Point"},"id":"B0FFF7AD80","geometry_name":"geom","type":"Feature","properties":{"id":"B0FFF7AD80","lng":"126.54678","lat":"43.822545","name":"怡神阁B座","address":"丰满区","city":"吉林市","adcode":"220211"}},{"geometry":{"coordinates":["126.545474","43.82228"],"type":"Point"},"id":"B0FFF7AD8G","geometry_name":"geom","type":"Feature","properties":{"id":"B0FFF7AD8G","lng":"126.545474","lat":"43.82228","name":"怡智阁B座","address":"丰满区","city":"吉林市","adcode":"220211"}},{"geometry":{"coordinates":["126.542758","43.816872"],"type":"Point"},"id":"B0FFF7ADIS","geometry_name":"geom","type":"Feature","properties":{"id":"B0FFF7ADIS","lng":"126.542758","lat":"43.816872","name":"圣米兰B座","address":"丰满区","city":"吉林市","adcode":"220211"}},{"geometry":{"coordinates":["126.564146","43.842983"],"type":"Point"},"id":"B01B00P268","geometry_name":"geom","type":"Feature","properties":{"id":"B01B00P268","lng":"126.564146","lat":"43.842983","name":"长城大厦B座(南京街)","address":"北京路和南京街交汇处南侧长城大厦","city":"吉林市","adcode":"220204"}},{"geometry":{"coordinates":["126.573985","43.846302"],"type":"Point"},"id":"B01B002LCW","geometry_name":"geom","type":"Feature","properties":{"id":"B01B002LCW","lng":"126.573985","lat":"43.846302","name":"泰庆大厦B座","address":"天津街与解冻东路交汇处","city":"吉林市","adcode":"220202"}},{"geometry":{"coordinates":["126.537381","43.835264"],"type":"Point"},"id":"B01B00P090","geometry_name":"geom","type":"Feature","properties":{"id":"B01B00P090","lng":"126.537381","lat":"43.835264","name":"AB内衣针织行(北京路)","address":"德胜街道北京路225号","city":"吉林市","adcode":"220204"}},{"geometry":{"coordinates":["126.564201","43.816508"],"type":"Point"},"id":"B0FFF7RLAE","geometry_name":"geom","type":"Feature","properties":{"id":"B0FFF7RLAE","lng":"126.564201","lat":"43.816508","name":"江南军园B楼","address":"吉林大街55号附近","city":"吉林市","adcode":"220211"}},{"geometry":{"coordinates":["126.55267","43.845707"],"type":"Point"},"id":"B0FFF9N99S","geometry_name":"geom","type":"Feature","properties":{"id":"B0FFF9N99S","lng":"126.55267","lat":"43.845707","name":"F\u0026B美甲瘦身","address":"珲春街华南小区俭朴楼(华南大众浴池胡同里走30米)","city":"吉林市","adcode":"220204"}},{"geometry":{"coordinates":["126.59384","43.848514"],"type":"Point"},"id":"B0FFF7TKDV","geometry_name":"geom","type":"Feature","properties":{"id":"B0FFF7TKDV","lng":"126.59384","lat":"43.848514","name":"江畔御园B栋","address":"昌邑区","city":"吉林市","adcode":"220202"}},{"geometry":{"coordinates":["126.567757","43.872816"],"type":"Point"},"id":"B01B00PN7W","geometry_name":"geom","type":"Feature","properties":{"id":"B01B00PN7W","lng":"126.567757","lat":"43.872816","name":"日杂批发市场B座","address":"吉林大街408号吉林日杂批发市场","city":"吉林市","adcode":"220202"}},{"geometry":{"coordinates":["126.560679","43.845721"],"type":"Point"},"id":"B0FFG2C6JV","geometry_name":"geom","type":"Feature","properties":{"id":"B0FFG2C6JV","lng":"126.560679","lat":"43.845721","name":"瑞龙音乐学校B区","address":"朝阳南街3号大林综合楼6层","city":"吉林市","adcode":"220204"}},{"geometry":{"coordinates":["126.544049","43.82138"],"type":"Point"},"id":"B0FFF7ADGZ","geometry_name":"geom","type":"Feature","properties":{"id":"B0FFF7ADGZ","lng":"126.544049","lat":"43.82138","name":"高新b区1号楼","address":"丰满区","city":"吉林市","adcode":"220211"}},{"geometry":{"coordinates":["126.542801","43.821432"],"type":"Point"},"id":"B0FFF7ADI2","geometry_name":"geom","type":"Feature","properties":{"id":"B0FFF7ADI2","lng":"126.542801","lat":"43.821432","name":"高新b区2号楼","address":"丰满区","city":"吉林市","adcode":"220211"}},{"geometry":{"coordinates":["126.564451","43.849376"],"type":"Point"},"id":"B01B0028RC","geometry_name":"geom","type":"Feature","properties":{"id":"B01B0028RC","lng":"126.564451","lat":"43.849376","name":"北奇城市广场B座","address":"南京街道光华路1号","city":"吉林市","adcode":"220204"}}],"type":"FeatureCollection"}